[
  {
    "id": 1,
    "name": "Park 1",
    "address": "Улица Абая 1 Алматы",
    "phone": "+7(777) 111-11-11",
    "district": "Алмалы",
    "hours": "ежедневно, 24 часа",
    "type": "Автостоянки паркинги"
  },
  {
    "id": 2,
    "name": "Park 2",
    "address": "Улица Абая 2 Алматы",
    "phone": "+7(777) 222-22-22",
    "district": "Алатау",
    "hours": "ежедневно, 24 часа",
    "type": "Перехватывающие парковки"
  },
  {
    "id": 3,
    "name": "Park 3",
    "address": "Улица Абая 3 Алматы",
    "phone": "+7(777) 333-33-33",
    "district": "Ауэзов",
    "hours": "ежедневно, 24 часа",
    "type": "Охраняемые парковки"
  },
  {
    "id": 4,
    "name": "Park 4",
    "address": "Улица Абая 4 Алматы",
    "phone": "+7(777) 444-44-44",
    "district": "Бостандык",
    "hours": "ежедневно, 24 часа",
    "type": "Подземные парковки"
  },
  {
    "id": 5,
    "name": "Park 5",
    "address": "Улица Абая 5 Алматы",
    "phone": "+7(777) 555-55-55",
    "district": "Жетысу",
    "hours": "ежедневно, 24 часа",
    "type": "Закрытые парковки"
  },
  {
    "id": 6,
    "name": "Park 6",
    "address": "Улица Абая 6 Алматы",
    "phone": "+7(777) 666-66-66",
    "district": "Медеу",
    "hours": "ежедневно, 24 часа",
    "type": "Бесплатные парковки"
  },
  {
    "id": 7,
    "name": "Park 7",
    "address": "Улица Абая 7 Алматы",
    "phone": "+7(777) 777-77-77",
    "district": "Наурызбай",
    "hours": "ежедневно, 24 часа",
    "type": "Платные парковки"
  },
  {
    "id": 8,
    "name": "Park 8",
    "address": "Улица Абая 8 Алматы",
    "phone": "+7(777) 888-88-88",
    "district": "Турксиб",
    "hours": "ежедневно, 24 часа",
    "type": "Грузовые парковки"
  },
  {
    "id": 9,
    "name": "Park 9",
    "address": "Улица Абая 9 Алматы",
    "phone": "+7(777) 999-99-99",
    "district": "Алмалы",
    "hours": "ежедневно, 24 часа",
    "type": "круглосуточные парковки"
  },
  {
    "id": 10,
    "name": "Park 10",
    "address": "Улица Абая 10 Алматы",
    "phone": "+7(777) 101-01-01",
    "district": "Алатау",
    "hours": "ежедневно, 24 часа",
    "type": "Многоуровневые парковки"
  },
  {
    "id": 11,
    "name": "Park 11",
    "address": "Улица Абая 11 Алматы",
    "phone": "+7(777) 111-11-12",
    "district": "Алмалы",
    "hours": "ежедневно, 24 часа",
    "type": "Автостоянки паркинги"
  },
  {
    "id": 12,
    "name": "Park 12",
    "address": "Улица Абая 12 Алматы",
    "phone": "+7(777) 222-22-23",
    "district": "Алатау",
    "hours": "ежедневно, 24 часа",
    "type": "Перехватывающие парковки"
  },
  {
    "id": 13,
    "name": "Park 13",
    "address": "Улица Абая 13 Алматы",
    "phone": "+7(777) 333-33-34",
    "district": "Ауэзов",
    "hours": "ежедневно, 24 часа",
    "type": "Охраняемые парковки"
  },
  {
    "id": 14,
    "name": "Park 14",
    "address": "Улица Абая 14 Алматы",
    "phone": "+7(777) 444-44-45",
    "district": "Бостандык",
    "hours": "ежедневно, 24 часа",
    "type": "Подземные парковки"
  },
  {
    "id": 15,
    "name": "Park 15",
    "address": "Улица Абая 15 Алматы",
    "phone": "+7(777) 555-55-56",
    "district": "Жетысу",
    "hours": "ежедневно, 24 часа",
    "type": "Закрытые парковки"
  },
  {
    "id": 16,
    "name": "Park 16",
    "address": "Улица Абая 16 Алматы",
    "phone": "+7(777) 666-66-67",
    "district": "Медеу",
    "hours": "ежедневно, 24 часа",
    "type": "Бесплатные парковки"
  },
  {
    "id": 17,
    "name": "Park 17",
    "address": "Улица Абая 17 Алматы",
    "phone": "+7(777) 777-77-78",
    "district": "Наурызбай",
    "hours": "ежедневно, 24 часа",
    "type": "Платные парковки"
  },
  {
    "id": 18,
    "name": "Park 18",
    "address": "Улица Абая 18 Алматы",
    "phone": "+7(777) 888-88-89",
    "district": "Турксиб",
    "hours": "ежедневно, 24 часа",
    "type": "Грузовые парковки"
  },
  {
    "id": 19,
    "name": "Park 19",
    "address": "Улица Абая 19 Алматы",
    "phone": "+7(777) 999-99-90",
    "district": "Алмалы",
    "hours": "ежедневно, 24 часа",
    "type": "круглосуточные парковки"
  },
  {
    "id": 20,
    "name": "Park 20",
    "address": "Улица Абая 20 Алматы",
    "phone": "+7(777) 101-01-02",
    "district": "Алатау",
    "hours": "ежедневно, 24 часа",
    "type": "Многоуровневые парковки"
  },
  {
    "id": 21,
    "name": "Park 21",
    "address": "Улица Абая 21 Алматы",
    "phone": "+7(777) 111-11-13",
    "district": "Алмалы",
    "hours": "ежедневно, 24 часа",
    "type": "Автостоянки паркинги"
  },
  {
    "id": 22,
    "name": "Park 22",
    "address": "Улица Абая 22 Алматы",
    "phone": "+7(777) 222-22-24",
    "district": "Алатау",
    "hours": "ежедневно, 24 часа",
    "type": "Перехватывающие парковки"
  },
  {
    "id": 23,
    "name": "Park 23",
    "address": "Улица Абая 23 Алматы",
    "phone": "+7(777) 333-33-35",
    "district": "Ауэзов",
    "hours": "ежедневно, 24 часа",
    "type": "Охраняемые парковки"
  },
  {
    "id": 24,
    "name": "Park 24",
    "address": "Улица Абая 24 Алматы",
    "phone": "+7(777) 444-44-46",
    "district": "Бостандык",
    "hours": "ежедневно, 24 часа",
    "type": "Подземные парковки"
  },
  {
    "id": 25,
    "name": "Park 25",
    "address": "Улица Абая 25 Алматы",
    "phone": "+7(777) 555-55-57",
    "district": "Жетысу",
    "hours": "ежедневно, 24 часа",
    "type": "Закрытые парковки"
  },
  {
    "id": 26,
    "name": "Park 26",
    "address": "Улица Абая 26 Алматы",
    "phone": "+7(777) 666-66-68",
    "district": "Медеу",
    "hours": "ежедневно, 24 часа",
    "type": "Бесплатные парковки"
  },
  {
    "id": 27,
    "name": "Park 27",
    "address": "Улица Абая 27 Алматы",
    "phone": "+7(777) 777-77-79",
    "district": "Наурызбай",
    "hours": "ежедневно, 24 часа",
    "type": "Платные парковки"
  },
  {
    "id": 28,
    "name": "Park 28",
    "address": "Улица Абая 28 Алматы",
    "phone": "+7(777) 888-88-80",
    "district": "Турксиб",
    "hours": "ежедневно, 24 часа",
    "type": "Грузовые парковки"
  },
  {
    "id": 29,
    "name": "Park 29",
    "address": "Улица Абая 29 Алматы",
    "phone": "+7(777) 999-99-91",
    "district": "Алмалы",
    "hours": "ежедневно, 24 часа",
    "type": "круглосуточные парковки"
  },
  {
    "id": 30,
    "name": "Park 30",
    "address": "Улица Абая 30 Алматы",
    "phone": "+7(777) 101-01-03",
    "district": "Алатау",
    "hours": "ежедневно, 24 часа",
    "type": "Многоуровневые парковки"
  },
  {
    "id": 31,
    "name": "Park 31",
    "address": "Улица Абая 31 Алматы",
    "phone": "+7(777) 111-11-14",
    "district": "Алмалы",
    "hours": "ежедневно, 24 часа",
    "type": "Автостоянки паркинги"
  },
  {
    "id": 32,
    "name": "Park 32",
    "address": "Улица Абая 32 Алматы",
    "phone": "+7(777) 222-22-25",
    "district": "Алатау",
    "hours": "ежедневно, 24 часа",
    "type": "Перехватывающие парковки"
  },
  {
    "id": 33,
    "name": "Park 33",
    "address": "Улица Абая 33 Алматы",
    "phone": "+7(777) 333-33-36",
    "district": "Ауэзов",
    "hours": "ежедневно, 24 часа",
    "type": "Охраняемые парковки"
  },
  {
    "id": 34,
    "name": "Park 34",
    "address": "Улица Абая 34 Алматы",
    "phone": "+7(777) 444-44-47",
    "district": "Бостандык",
    "hours": "ежедневно, 24 часа",
    "type": "Подземные парковки"
  },
  {
    "id": 35,
    "name": "Park 35",
    "address": "Улица Абая 35 Алматы",
    "phone": "+7(777) 555-55-58",
    "district": "Жетысу",
    "hours": "ежедневно, 24 часа",
    "type": "Закрытые парковки"
  },
  {
    "id": 36,
    "name": "Park 36",
    "address": "Улица Абая 36 Алматы",
    "phone": "+7(777) 666-66-69",
    "district": "Медеу",
    "hours": "ежедневно, 24 часа",
    "type": "Бесплатные парковки"
  },
  {
    "id": 37,
    "name": "Park 37",
    "address": "Улица Абая 37 Алматы",
    "phone": "+7(777) 777-77-80",
    "district": "Наурызбай",
    "hours": "ежедневно, 24 часа",
    "type": "Платные парковки"
  },
  {
    "id": 38,
    "name": "Park 38",
    "address": "Улица Абая 38 Алматы",
    "phone": "+7(777) 888-88-81",
    "district": "Турксиб",
    "hours": "ежедневно, 24 часа",
    "type": "Грузовые парковки"
  },
  {
    "id": 39,
    "name": "Park 39",
    "address": "Улица Абая 39 Алматы",
    "phone": "+7(777) 999-99-92",
    "district": "Алмалы",
    "hours": "ежедневно, 24 часа",
    "type": "круглосуточные парковки"
  },
  {
    "id": 40,
    "name": "Park 40",
    "address": "Улица Абая 40 Алматы",
    "phone": "+7(777) 101-01-04",
    "district": "Алатау",
    "hours": "ежедневно, 24 часа",
    "type": "Многоуровневые парковки"
  },
  {
    "id": 41,
    "name": "Park 41",
    "address": "Улица Абая 41 Алматы",
    "phone": "+7(777) 111-11-15",
    "district": "Алмалы",
    "hours": "ежедневно, 24 часа",
    "type": "Автостоянки паркинги"
  },
  {
    "id": 42,
    "name": "Park 42",
    "address": "Улица Абая 42 Алматы",
    "phone": "+7(777) 222-22-26",
    "district": "Алатау",
    "hours": "ежедневно, 24 часа",
    "type": "Перехватывающие парковки"
  },
  {
    "id": 43,
    "name": "Park 43",
    "address": "Улица Абая 43 Алматы",
    "phone": "+7(777) 333-33-37",
    "district": "Ауэзов",
    "hours": "ежедневно, 24 часа",
    "type": "Охраняемые парковки"
  },
  {
    "id": 44,
    "name": "Park 44",
    "address": "Улица Абая 44 Алматы",
    "phone": "+7(777) 444-44-48",
    "district": "Бостандык",
    "hours": "ежедневно, 24 часа",
    "type": "Подземные парковки"
  },
  {
    "id": 45,
    "name": "Park 45",
    "address": "Улица Абая 45 Алматы",
    "phone": "+7(777) 555-55-59",
    "district": "Жетысу",
    "hours": "ежедневно, 24 часа",
    "type": "Закрытые парковки"
  },
  {
    "id": 46,
    "name": "Park 46",
    "address": "Улица Абая 46 Алматы",
    "phone": "+7(777) 666-66-60",
    "district": "Медеу",
    "hours": "ежедневно, 24 часа",
    "type": "Бесплатные парковки"
  },
  {
    "id": 47,
    "name": "Park 47",
    "address": "Улица Абая 47 Алматы",
    "phone": "+7(777) 777-77-81",
    "district": "Наурызбай",
    "hours": "ежедневно, 24 часа",
    "type": "Платные парковки"
  },
  {
    "id": 48,
    "name": "Park 48",
    "address": "Улица Абая 48 Алматы",
    "phone": "+7(777) 888-88-82",
    "district": "Турксиб",
    "hours": "ежедневно, 24 часа",
    "type": "Грузовые парковки"
  },
  {
    "id": 49,
    "name": "Park 49",
    "address": "Улица Абая 49 Алматы",
    "phone": "+7(777) 999-99-93",
    "district": "Алмалы",
    "hours": "ежедневно, 24 часа",
    "type": "круглосуточные парковки"
  },
  {
    "id": 50,
    "name": "Park 50",
    "address": "Улица Абая 50 Алматы",
    "phone": "+7(777) 101-01-05",
    "district": "Алатау",
    "hours": "ежедневно, 24 часа",
    "type": "Многоуровневые парковки"
  },
  {
    "id": 51,
    "name": "Park 51",
    "address": "Улица Абая 51 Алматы",
    "phone": "+7(777) 111-11-16",
    "district": "Алмалы",
    "hours": "ежедневно, 24 часа",
    "type": "Автостоянки паркинги"
  },
  {
    "id": 52,
    "name": "Park 52",
    "address": "Улица Абая 52 Алматы",
    "phone": "+7(777) 222-22-27",
    "district": "Алатау",
    "hours": "ежедневно, 24 часа",
    "type": "Перехватывающие парковки"
  },
  {
    "id": 53,
    "name": "Park 53",
    "address": "Улица Абая 53 Алматы",
    "phone": "+7(777) 333-33-38",
    "district": "Ауэзов",
    "hours": "ежедневно, 24 часа",
    "type": "Охраняемые парковки"
  },
  {
    "id": 54,
    "name": "Park 54",
    "address": "Улица Абая 54 Алматы",
    "phone": "+7(777) 444-44-49",
    "district": "Бостандык",
    "hours": "ежедневно, 24 часа",
    "type": "Подземные парковки"
  },
  {
    "id": 55,
    "name": "Park 55",
    "address": "Улица Абая 55 Алматы",
    "phone": "+7(777) 555-55-50",
    "district": "Жетысу",
    "hours": "ежедневно, 24 часа",
    "type": "Закрытые парковки"
  },
  {
    "id": 56,
    "name": "Park 56",
    "address": "Улица Абая 56 Алматы",
    "phone": "+7(777) 666-66-61",
    "district": "Медеу",
    "hours": "ежедневно, 24 часа",
    "type": "Бесплатные парковки"
  },
  {
    "id": 57,
    "name": "Park 57",
    "address": "Улица Абая 57 Алматы",
    "phone": "+7(777) 777-77-82",
    "district": "Наурызбай",
    "hours": "ежедневно, 24 часа",
    "type": "Платные парковки"
  },
  {
    "id": 58,
    "name": "Park 58",
    "address": "Улица Абая 58 Алматы",
    "phone": "+7(777) 888-88-83",
    "district": "Турксиб",
    "hours": "ежедневно, 24 часа",
    "type": "Грузовые парковки"
  },
  {
    "id": 59,
    "name": "Park 59",
    "address": "Улица Абая 59 Алматы",
    "phone": "+7(777) 999-99-94",
    "district": "Алмалы",
    "hours": "ежедневно, 24 часа",
    "type": "круглосуточные парковки"
  },
  {
    "id": 60,
    "name": "Park 60",
    "address": "Улица Абая 60 Алматы",
    "phone": "+7(777) 101-01-06",
    "district": "Алатау",
    "hours": "ежедневно, 24 часа",
    "type": "Многоуровневые парковки"
  },
  {
    "id": 61,
    "name": "Park 61",
    "address": "Улица Абая 61 Алматы",
    "phone": "+7(777) 111-11-17",
    "district": "Алмалы",
    "hours": "ежедневно, 24 часа",
    "type": "Автостоянки паркинги"
  },
  {
    "id": 62,
    "name": "Park 62",
    "address": "Улица Абая 62 Алматы",
    "phone": "+7(777) 222-22-28",
    "district": "Алатау",
    "hours": "ежедневно, 24 часа",
    "type": "Перехватывающие парковки"
  },
  {
    "id": 63,
    "name": "Park 63",
    "address": "Улица Абая 63 Алматы",
    "phone": "+7(777) 333-33-39",
    "district": "Ауэзов",
    "hours": "ежедневно, 24 часа",
    "type": "Охраняемые парковки"
  },
  {
    "id": 64,
    "name": "Park 64",
    "address": "Улица Абая 64 Алматы",
    "phone": "+7(777) 444-44-40",
    "district": "Бостандык",
    "hours": "ежедневно, 24 часа",
    "type": "Подземные парковки"
  },
  {
    "id": 65,
    "name": "Park 65",
    "address": "Улица Абая 65 Алматы",
    "phone": "+7(777) 555-55-51",
    "district": "Жетысу",
    "hours": "ежедневно, 24 часа",
    "type": "Закрытые парковки"
  },
  {
    "id": 66,
    "name": "Park 66",
    "address": "Улица Абая 66 Алматы",
    "phone": "+7(777) 666-66-62",
    "district": "Медеу",
    "hours": "ежедневно, 24 часа",
    "type": "Бесплатные парковки"
  },
  {
    "id": 67,
    "name": "Park 67",
    "address": "Улица Абая 67 Алматы",
    "phone": "+7(777) 777-77-83",
    "district": "Наурызбай",
    "hours": "ежедневно, 24 часа",
    "type": "Платные парковки"
  },
  {
    "id": 68,
    "name": "Park 68",
    "address": "Улица Абая 68 Алматы",
    "phone": "+7(777) 888-88-84",
    "district": "Турксиб",
    "hours": "ежедневно, 24 часа",
    "type": "Грузовые парковки"
  },
  {
    "id": 69,
    "name": "Park 69",
    "address": "Улица Абая 69 Алматы",
    "phone": "+7(777) 999-99-95",
    "district": "Алмалы",
    "hours": "ежедневно, 24 часа",
    "type": "круглосуточные парковки"
  },
  {
    "id": 70,
    "name": "Park 70",
    "address": "Улица Абая 70 Алматы",
    "phone": "+7(777) 101-01-07",
    "district": "Алатау",
    "hours": "ежедневно, 24 часа",
    "type": "Многоуровневые парковки"
  },
  {
    "id": 71,
    "name": "Park 71",
    "address": "Улица Абая 71 Алматы",
    "phone": "+7(777) 111-11-18",
    "district": "Алмалы",
    "hours": "ежедневно, 24 часа",
    "type": "Автостоянки паркинги"
  },
  {
    "id": 72,
    "name": "Park 72",
    "address": "Улица Абая 72 Алматы",
    "phone": "+7(777) 222-22-29",
    "district": "Алатау",
    "hours": "ежедневно, 24 часа",
    "type": "Перехватывающие парковки"
  },
  {
    "id": 73,
    "name": "Park 73",
    "address": "Улица Абая 73 Алматы",
    "phone": "+7(777) 333-33-30",
    "district": "Ауэзов",
    "hours": "ежедневно, 24 часа",
    "type": "Охраняемые парковки"
  },
  {
    "id": 74,
    "name": "Park 74",
    "address": "Улица Абая 74 Алматы",
    "phone": "+7(777) 444-44-41",
    "district": "Бостандык",
    "hours": "ежедневно, 24 часа",
    "type": "Подземные парковки"
  },
  {
    "id": 75,
    "name": "Park 75",
    "address": "Улица Абая 75 Алматы",
    "phone": "+7(777) 555-55-52",
    "district": "Жетысу",
    "hours": "ежедневно, 24 часа",
    "type": "Закрытые парковки"
  },
  {
    "id": 76,
    "name": "Park 76",
    "address": "Улица Абая 76 Алматы",
    "phone": "+7(777) 666-66-63",
    "district": "Медеу",
    "hours": "ежедневно, 24 часа",
    "type": "Бесплатные парковки"
  },
  {
    "id": 77,
    "name": "Park 77",
    "address": "Улица Абая 77 Алматы",
    "phone": "+7(777) 777-77-84",
    "district": "Наурызбай",
    "hours": "ежедневно, 24 часа",
    "type": "Платные парковки"
  },
  {
    "id": 78,
    "name": "Park 78",
    "address": "Улица Абая 78 Алматы",
    "phone": "+7(777) 888-88-85",
    "district": "Турксиб",
    "hours": "ежедневно, 24 часа",
    "type": "Грузовые парковки"
  },
  {
    "id": 79,
    "name": "Park 79",
    "address": "Улица Абая 79 Алматы",
    "phone": "+7(777) 999-99-96",
    "district": "Алмалы",
    "hours": "ежедневно, 24 часа",
    "type": "круглосуточные парковки"
  },
  {
    "id": 80,
    "name": "Park 80",
    "address": "Улица Абая 80 Алматы",
    "phone": "+7(777) 101-01-08",
    "district": "Алатау",
    "hours": "ежедневно, 24 часа",
    "type": "Многоуровневые парковки"
  },
  {
    "id": 81,
    "name": "Park 81",
    "address": "Улица Абая 81 Алматы",
    "phone": "+7(777) 111-11-19",
    "district": "Алмалы",
    "hours": "ежедневно, 24 часа",
    "type": "Автостоянки паркинги"
  },
  {
    "id": 82,
    "name": "Park 82",
    "address": "Улица Абая 82 Алматы",
    "phone": "+7(777) 222-22-30",
    "district": "Алатау",
    "hours": "ежедневно, 24 часа",
    "type": "Перехватывающие парковки"
  },
  {
    "id": 83,
    "name": "Park 83",
    "address": "Улица Абая 83 Алматы",
    "phone": "+7(777) 333-33-31",
    "district": "Ауэзов",
    "hours": "ежедневно, 24 часа",
    "type": "Охраняемые парковки"
  },
  {
    "id": 84,
    "name": "Park 84",
    "address": "Улица Абая 84 Алматы",
    "phone": "+7(777) 444-44-42",
    "district": "Бостандык",
    "hours": "ежедневно, 24 часа",
    "type": "Подземные парковки"
  },
  {
    "id": 85,
    "name": "Park 85",
    "address": "Улица Абая 85 Алматы",
    "phone": "+7(777) 555-55-53",
    "district": "Жетысу",
    "hours": "ежедневно, 24 часа",
    "type": "Закрытые парковки"
  },
  {
    "id": 86,
    "name": "Park 86",
    "address": "Улица Абая 86 Алматы",
    "phone": "+7(777) 666-66-64",
    "district": "Медеу",
    "hours": "ежедневно, 24 часа",
    "type": "Бесплатные парковки"
  },
  {
    "id": 87,
    "name": "Park 87",
    "address": "Улица Абая 87 Алматы",
    "phone": "+7(777) 777-77-85",
    "district": "Наурызбай",
    "hours": "ежедневно, 24 часа",
    "type": "Платные парковки"
  },
  {
    "id": 88,
    "name": "Park 88",
    "address": "Улица Абая 88 Алматы",
    "phone": "+7(777) 888-88-86",
    "district": "Турксиб",
    "hours": "ежедневно, 24 часа",
    "type": "Грузовые парковки"
  },
  {
    "id": 89,
    "name": "Park 89",
    "address": "Улица Абая 89 Алматы",
    "phone": "+7(777) 999-99-97",
    "district": "Алмалы",
    "hours": "ежедневно, 24 часа",
    "type": "круглосуточные парковки"
  },
  {
    "id": 90,
    "name": "Park 90",
    "address": "Улица Абая 90 Алматы",
    "phone": "+7(777) 101-01-09",
    "district": "Алатау",
    "hours": "ежедневно, 24 часа",
    "type": "Многоуровневые парковки"
  },
  {
    "id": 91,
    "name": "Park 91",
    "address": "Улица Абая 91 Алматы",
    "phone": "+7(777) 111-11-20",
    "district": "Алмалы",
    "hours": "ежедневно, 24 часа",
    "type": "Автостоянки паркинги"
  },
  {
    "id": 92,
    "name": "Park 92",
    "address": "Улица Абая 92 Алматы",
    "phone": "+7(777) 222-22-31",
    "district": "Алатау",
    "hours": "ежедневно, 24 часа",
    "type": "Перехватывающие парковки"
  },
  {
    "id": 93,
    "name": "Park 93",
    "address": "Улица Абая 93 Алматы",
    "phone": "+7(777) 333-33-32",
    "district": "Ауэзов",
    "hours": "ежедневно, 24 часа",
    "type": "Охраняемые парковки"
  },
  {
    "id": 94,
    "name": "Park 94",
    "address": "Улица Абая 94 Алматы",
    "phone": "+7(777) 444-44-43",
    "district": "Бостандык",
    "hours": "ежедневно, 24 часа",
    "type": "Подземные парковки"
  },
  {
    "id": 95,
    "name": "Park 95",
    "address": "Улица Абая 95 Алматы",
    "phone": "+7(777) 555-55-54",
    "district": "Жетысу",
    "hours": "ежедневно, 24 часа",
    "type": "Закрытые парковки"
  },
  {
    "id": 96,
    "name": "Park 96",
    "address": "Улица Абая 96 Алматы",
    "phone": "+7(777) 666-66-65",
    "district": "Медеу",
    "hours": "ежедневно, 24 часа",
    "type": "Бесплатные парковки"
  },
  {
    "id": 97,
    "name": "Park 97",
    "address": "Улица Абая 97 Алматы",
    "phone": "+7(777) 777-77-86",
    "district": "Наурызбай",
    "hours": "ежедневно, 24 часа",
    "type": "Платные парковки"
  },
  {
    "id": 98,
    "name": "Park 98",
    "address": "Улица Абая 98 Алматы",
    "phone": "+7(777) 888-88-87",
    "district": "Турксиб",
    "hours": "ежедневно, 24 часа",
    "type": "Грузовые парковки"
  },
  {
    "id": 99,
    "name": "Park 99",
    "address": "Улица Абая 99 Алматы",
    "phone": "+7(777) 999-99-98",
    "district": "Алмалы",
    "hours": "ежедневно, 24 часа",
    "type": "круглосуточные парковки"
  },
  {
    "id": 100,
    "name": "Park 100",
    "address": "Улица Абая 100 Алматы",
    "phone": "+7(777) 101-01-10",
    "district": "Алатау",
    "hours": "ежедневно, 24 часа",
    "type": "Многоуровневые парковки"
  }
]